[{"id":2824,"name":"Clube Mini Melissa Ribeiru00e3o Shopping (SP)","address":"AVENIDA CORONEL FERNANDO FERREIRA LEITE, 1540 - LOJA 155 - JARDIM CALIFu00d3RNIA - 14026900","phone":"16 31029218 / 16 997425539","url":null,"facebook":"https://www.facebook.com/clubeminimelissaribeiraoshopping/","instagram":null,"lat":"-21.21237200","lng":"-47.81592000","aggregate_type":"mini_melissa_club"},{"id":2825,"name":"Clube Mini Melissa Su00e3o Josu00e9 do Rio Preto (SP)","address":"AVENIDA BRIGADEIRO FARIA LIMA, 6363 - SUC 142 - JARDIM MORUMBI - 15090900","phone":"17 31219545 / 17 997142085","url":null,"facebook":"https://www.facebook.com/ClubeMiniMelissaRioPretoShopping/","instagram":null,"lat":"-20.83527000","lng":"-49.39890900","aggregate_type":"mini_melissa_club"},{"id":2826,"name":"Clube Mini Melissa Shopping Leblon (RJ)","address":"Av. Afranio Melo Franco 290 u2013 Loja 112 H - Leblon u2013 CEP 22430-060","phone":"(21) 2294-9652 / (21) 99544-8871","url":null,"facebook":"https://www.facebook.com/clubeminimelissashoppingleblon/","instagram":null,"lat":"-22.98244900","lng":"-43.21693700","aggregate_type":"mini_melissa_club"},{"id":2827,"name":"Clube Mini Melissa Pelotas Shopping (RS)","address":"Av Ferreira Viana, 1526 - Loja 18 - Areal - CEP 96085000","phone":"(53) 981259937","url":null,"facebook":"https://www.facebook.com/clubeminimelissashoppingpelotas/","instagram":null,"lat":"-31.76127500","lng":"-52.31851600","aggregate_type":"mini_melissa_club"},{"id":2828,"name":"Clube Mini Melissa Park Shopping (DF)","address":"St. Saiso Area, 6580 - Loja 228s - Guara - CEP 71219900","phone":"","url":null,"facebook":"https://www.instagram.com/clubeminimelissa.pks/","instagram":null,"lat":"-15.83342100","lng":"-47.95453600","aggregate_type":"mini_melissa_club"},{"id":2829,"name":"Clube Mini Melissa Tauatinga (DF)","address":"Q qs - Rua 210,01 - Lote 40 - Salu00e3o Comercial 1006","phone":"(61) 3049-1083","url":null,"facebook":"https://www.instagram.com/clubeminimelissataguatinga/","instagram":null,"lat":"-15.84172000","lng":"-48.04394200","aggregate_type":"mini_melissa_club"},{"id":2830,"name":"Clube Mini Melissa Barra Shopping (RJ)","address":"Av, Nossa Sra Copacabana, 664 - Lj 22 - Copacabana - 22050001","phone":"(21) 2397-0060","url":null,"facebook":"https://www.facebook.com/clubeminimelissabarrashopping","instagram":null,"lat":"-22.99760900","lng":"-43.35818000","aggregate_type":"mini_melissa_club"},{"id":2831,"name":"Clube Mini Melissa Maxi Jundiai (SP)","address":"Avenida Antu00f4nio Frederico Ozanan, 6000 - Loja 2455 - Vila Rio Branco - 13215900","phone":"(11) 3964-3964 / (11) 94182-5167","url":null,"facebook":"https://www.facebook.com/ClubeMiniMelissaMaxiShopping/","instagram":null,"lat":"-23.16945500","lng":"-46.89177700","aggregate_type":"mini_melissa_club"},{"id":2832,"name":"Clube Mini Melissa Iguatemi Caxias Do Sul (RS)","address":"Rodovia Rsc-453, 5, 2780 - Km 350 Sala 134 - Cidade Nova - 95110900","phone":"(54) 3066-4400","url":null,"facebook":"https://www.facebook.com/clubeminimelissacaxias/","instagram":null,"lat":"-29.17708200","lng":"-51.21950600","aggregate_type":"mini_melissa_club"},{"id":2833,"name":"Clube Mini Melissa Flamboyant (GO)","address":"Avenida Deputado Jamel Cecu00edlio, 3300 - Loja Luc S-374 Terreo Ii - Jardim Goiu00e1s - 74810100","phone":"(62) 3996-1234","url":null,"facebook":"https://www.facebook.com/clubeminimelissaflamboyant","instagram":null,"lat":"-16.71368200","lng":"-49.23576600","aggregate_type":"mini_melissa_club"},{"id":2834,"name":"Clube Mini Melissa Iguatemi Campinas (SP)","address":"Avenida Iguatemi, 777 - Loja 21 - Vila Brandina - CEP: 13092-902","phone":"(19) 3203-5995","url":null,"facebook":"https://www.facebook.com/ClubeMiniMelissaIguatemiCampinas/","instagram":null,"lat":"-22.89247100","lng":"-47.02744600","aggregate_type":"mini_melissa_club"}]